{
"type": "FeatureCollection",
                                                                                
"features": [

{ "type": "Feature", "geometry" : { "type" : "Point", "coordinates" : [  18.63065,  54.34195 ] }, "name" : "Szkoły podstawowe", "city" : "Gdańsk" }
{ "type": "Feature", "geometry" : { "type" : "Point", "coordinates" : [  18.60798,  54.33928 ] }, "name" : "Szkoły podstawowe", "city" : "Gdańsk" }
{ "type": "Feature", "geometry" : { "type" : "Point", "coordinates" : [  18.62492,  54.38752 ] }, "name" : "Szkoły podstawowe", "city" : "Gdańsk" }
{ "type": "Feature", "geometry" : { "type" : "Point", "coordinates" : [  18.69121,  54.35842 ] }, "name" : "Szkoły podstawowe", "city" : "Gdańsk" }
{ "type": "Feature", "geometry" : { "type" : "Point", "coordinates" : [  18.580441,  54.377102 ] }, "name" : "Szkoły podstawowe", "city" : "Gdańsk" }
{ "type": "Feature", "geometry" : { "type" : "Point", "coordinates" : [  18.71227,  54.36143 ] }, "name" : "Szkoły podstawowe", "city" : "Gdańsk" }
{ "type": "Feature", "geometry" : { "type" : "Point", "coordinates" : [  18.56974,  54.37681 ] }, "name" : "Szkoły podstawowe", "city" : "Gdańsk" }
{ "type": "Feature", "geometry" : { "type" : "Point", "coordinates" : [  18.58395,  54.32501 ] }, "name" : "Szkoły podstawowe", "city" : "Gdańsk" }
{ "type": "Feature", "geometry" : { "type" : "Point", "coordinates" : [  18.56182,  54.37589 ] }, "name" : "Szkoły podstawowe", "city" : "Gdańsk" }
{ "type": "Feature", "geometry" : { "type" : "Point", "coordinates" : [  18.57884,  54.4035 ] }, "name" : "Szkoły podstawowe", "city" : "Gdańsk" }
{ "type": "Feature", "geometry" : { "type" : "Point", "coordinates" : [  18.585266,  54.424013 ] }, "name" : "Szkoły podstawowe", "city" : "Gdańsk" }
{ "type": "Feature", "geometry" : { "type" : "Point", "coordinates" : [  18.509129,  54.339661 ] }, "name" : "Szkoły podstawowe", "city" : "Gdańsk" }
{ "type": "Feature", "geometry" : { "type" : "Point", "coordinates" : [  18.481,  54.3533 ] }, "name" : "Szkoły podstawowe", "city" : "Gdańsk" }
{ "type": "Feature", "geometry" : { "type" : "Point", "coordinates" : [  18.79938,  54.33111 ] }, "name" : "Szkoły podstawowe", "city" : "Wiślinka" }
{ "type": "Feature", "geometry" : { "type" : "Point", "coordinates" : [  18.66974,  54.26377 ] }, "name" : "Szkoły podstawowe", "city" : "Pruszcz Gdański" }
{ "type": "Feature", "geometry" : { "type" : "Point", "coordinates" : [  18.62829,  54.26069 ] }, "name" : "Szkoły podstawowe", "city" : "Pruszcz Gdański" }
{ "type": "Feature", "geometry" : { "type" : "Point", "coordinates" : [  18.63711,  54.25568 ] }, "name" : "Szkoły podstawowe", "city" : "Pruszcz Gdański" }
{ "type": "Feature", "geometry" : { "type" : "Point", "coordinates" : [  18.468478,  54.430691 ] }, "name" : "Szkoły podstawowe", "city" : "Gdańsk" }
{ "type": "Feature", "geometry" : { "type" : "Point", "coordinates" : [  18.454085,  54.417356 ] }, "name" : "Szkoły podstawowe", "city" : "Gdańsk" }
{ "type": "Feature", "geometry" : { "type" : "Point", "coordinates" : [  18.55921,  54.47981 ] }, "name" : "Szkoły podstawowe", "city" : "Gdynia" }
{ "type": "Feature", "geometry" : { "type" : "Point", "coordinates" : [  18.599837,  54.232666 ] }, "name" : "Szkoły podstawowe", "city" : "Wojanowo" }
{ "type": "Feature", "geometry" : { "type" : "Point", "coordinates" : [  18.41135,  54.39068 ] }, "name" : "Szkoły podstawowe", "city" : "Banino" }
{ "type": "Feature", "geometry" : { "type" : "Point", "coordinates" : [  18.64911,  54.22361 ] }, "name" : "Szkoły podstawowe", "city" : "Łęgowo" }
{ "type": "Feature", "geometry" : { "type" : "Point", "coordinates" : [  18.552313,  54.493435 ] }, "name" : "Szkoły podstawowe", "city" : "Gdynia" }
{ "type": "Feature", "geometry" : { "type" : "Point", "coordinates" : [  18.468472,  54.473253 ] }, "name" : "Szkoły podstawowe", "city" : "Gdynia" }
{ "type": "Feature", "geometry" : { "type" : "Point", "coordinates" : [  18.461043,  54.471617 ] }, "name" : "Szkoły podstawowe", "city" : "Gdynia" }
{ "type": "Feature", "geometry" : { "type" : "Point", "coordinates" : [  18.509881,  54.494331 ] }, "name" : "Szkoły podstawowe", "city" : "Gdynia" }
{ "type": "Feature", "geometry" : { "type" : "Point", "coordinates" : [  18.50973,  54.50003 ] }, "name" : "Szkoły podstawowe", "city" : "Gdynia" }
{ "type": "Feature", "geometry" : { "type" : "Point", "coordinates" : [  18.545084,  54.509936 ] }, "name" : "Szkoły podstawowe", "city" : "Gdynia" }
{ "type": "Feature", "geometry" : { "type" : "Point", "coordinates" : [  18.523672,  54.514245 ] }, "name" : "Szkoły podstawowe", "city" : "Gdynia" }
{ "type": "Feature", "geometry" : { "type" : "Point", "coordinates" : [  18.42126,  54.492382 ] }, "name" : "Szkoły podstawowe", "city" : "Gdynia" }
{ "type": "Feature", "geometry" : { "type" : "Point", "coordinates" : [  18.37852,  54.47505 ] }, "name" : "Szkoły podstawowe", "city" : "Bojano" }
{ "type": "Feature", "geometry" : { "type" : "Point", "coordinates" : [  18.68553,  54.17163 ] }, "name" : "Szkoły podstawowe", "city" : "Pszczółki" }
{ "type": "Feature", "geometry" : { "type" : "Point", "coordinates" : [  18.53769,  54.17235 ] }, "name" : "Szkoły podstawowe", "city" : "Trąbki Wielkie" }
{ "type": "Feature", "geometry" : { "type" : "Point", "coordinates" : [  18.33562,  54.45395 ] }, "name" : "Szkoły podstawowe", "city" : "Kielno" }
{ "type": "Feature", "geometry" : { "type" : "Point", "coordinates" : [  18.96262,  54.28948 ] }, "name" : "Szkoły podstawowe", "city" : "Drewnica" }
{ "type": "Feature", "geometry" : { "type" : "Point", "coordinates" : [  18.502708,  54.553174 ] }, "name" : "Szkoły podstawowe", "city" : "Gdynia" }
{ "type": "Feature", "geometry" : { "type" : "Point", "coordinates" : [  18.27299,  54.31628 ] }, "name" : "Szkoły podstawowe", "city" : "Dzierżążno" }
{ "type": "Feature", "geometry" : { "type" : "Point", "coordinates" : [  19.016214,  54.335832 ] }, "name" : "Szkoły podstawowe", "city" : "Jantar" }
{ "type": "Feature", "geometry" : { "type" : "Point", "coordinates" : [  18.32645,  54.19651 ] }, "name" : "Szkoły podstawowe", "city" : "Przywidz" }
{ "type": "Feature", "geometry" : { "type" : "Point", "coordinates" : [  18.39458,  54.56017 ] }, "name" : "Szkoły podstawowe", "city" : "Rumia" }
{ "type": "Feature", "geometry" : { "type" : "Point", "coordinates" : [  18.203428,  54.336249 ] }, "name" : "Szkoły podstawowe", "city" : "Kartuzy" }
{ "type": "Feature", "geometry" : { "type" : "Point", "coordinates" : [  18.19113,  54.334 ] }, "name" : "Szkoły podstawowe", "city" : "Kartuzy" }
{ "type": "Feature", "geometry" : { "type" : "Point", "coordinates" : [  18.22158,  54.48753 ] }, "name" : "Szkoły podstawowe", "city" : "Szemud" }
{ "type": "Feature", "geometry" : { "type" : "Point", "coordinates" : [  19.12263,  54.32874 ] }, "name" : "Szkoły podstawowe", "city" : "Stegna" }
{ "type": "Feature", "geometry" : { "type" : "Point", "coordinates" : [  18.344338,  54.596343 ] }, "name" : "Szkoły podstawowe", "city" : "Reda" }
{ "type": "Feature", "geometry" : { "type" : "Point", "coordinates" : [  19.00312,  54.13541 ] }, "name" : "Szkoły podstawowe", "city" : "Nowy Staw" }
{ "type": "Feature", "geometry" : { "type" : "Point", "coordinates" : [  18.44009,  54.07047 ] }, "name" : "Szkoły podstawowe", "city" : "Skarszewy" }
{ "type": "Feature", "geometry" : { "type" : "Point", "coordinates" : [  19.17301,  54.32917 ] }, "name" : "Szkoły podstawowe", "city" : "Sztutowo" }
{ "type": "Feature", "geometry" : { "type" : "Point", "coordinates" : [  18.01835,  54.33912 ] }, "name" : "Szkoły podstawowe", "city" : "Miechucino" }
{ "type": "Feature", "geometry" : { "type" : "Point", "coordinates" : [  18.18602,  54.61421 ] }, "name" : "Szkoły podstawowe", "city" : "Bolszewo" }
{ "type": "Feature", "geometry" : { "type" : "Point", "coordinates" : [  18.16319,  54.6084 ] }, "name" : "Szkoły podstawowe", "city" : "Gościcino" }
{ "type": "Feature", "geometry" : { "type" : "Point", "coordinates" : [  18.39113,  53.9951 ] }, "name" : "Szkoły podstawowe", "city" : "Kleszczewo Kościerskie" }
{ "type": "Feature", "geometry" : { "type" : "Point", "coordinates" : [  19.03424,  54.03909 ] }, "name" : "Szkoły podstawowe", "city" : "Malbork" }
{ "type": "Feature", "geometry" : { "type" : "Point", "coordinates" : [  19.01085,  54.01782 ] }, "name" : "Szkoły podstawowe", "city" : "Malbork" }
{ "type": "Feature", "geometry" : { "type" : "Point", "coordinates" : [  19.04399,  54.02902 ] }, "name" : "Szkoły podstawowe", "city" : "Malbork" }
{ "type": "Feature", "geometry" : { "type" : "Point", "coordinates" : [  19.04259,  54.02611 ] }, "name" : "Szkoły podstawowe", "city" : "Malbork" }
{ "type": "Feature", "geometry" : { "type" : "Point", "coordinates" : [  19.06588,  54.01264 ] }, "name" : "Szkoły podstawowe", "city" : "Nowa Wieś Malborska" }
{ "type": "Feature", "geometry" : { "type" : "Point", "coordinates" : [  18.34879,  53.96435 ] }, "name" : "Szkoły podstawowe", "city" : "Pinczyn" }
{ "type": "Feature", "geometry" : { "type" : "Point", "coordinates" : [  18.69657,  53.924913 ] }, "name" : "Szkoły podstawowe", "city" : "Pelplin" }
{ "type": "Feature", "geometry" : { "type" : "Point", "coordinates" : [  17.88707,  54.34474 ] }, "name" : "Szkoły podstawowe", "city" : "Sierakowice" }

]
}
